{"type": "FeatureCollection", "name": "Under Construction Metro Stations & Depots", "features": [{"type": "Feature", "geometry": {"type": "Point", "coordinates": [72.85538, 19.128532]}, "properties": {"name": "Mogra Station", "description": "Formerly Shankarwadi Station"}}, {"type": "Feature", "geometry": {"type": "Point", "coordinates": [72.855013, 19.142819]}, "properties": {"name": "Jogeshwari (E) Station", "description": "formerly JVLR Junction Station"}}, {"type": "Feature", "geometry": {"type": "Point", "coordinates": [72.856516, 19.152579]}, "properties": {"name": "Goregaon E Station", "description": "formerly Mahanand Station"}}, {"type": "Feature", "geometry": {"type": "Point", "coordinates": [72.858423, 19.187489]}, "properties": {"name": "Kurar Station", "description": "Formerly Pushpa Park Station"}}, {"type": "Feature", "geometry": {"type": "Point", "coordinates": [72.85823, 19.1798]}, "properties": {"name": "Dindoshi Station", "description": "Formerly Pathanwadi"}}, {"type": "Feature", "geometry": {"type": "Point", "coordinates": [72.86058, 19.198122]}, "properties": {"name": "Akurli Station", "description": "Formerly Bandongri Station"}}, {"type": "Feature", "geometry": {"type": "Point", "coordinates": [72.863411, 19.203855]}, "properties": {"name": "Poisar Station", "description": "Formerly Mahindra & Mahindra Station"}}, {"type": "Feature", "geometry": {"type": "Point", "coordinates": [72.866794, 19.216851]}, "properties": {"name": "Magathane Station"}}, {"type": "Feature", "geometry": {"type": "Point", "coordinates": [72.864142, 19.224367]}, "properties": {"name": "Devipada Station"}}, {"type": "Feature", "geometry": {"type": "Point", "coordinates": [72.863077, 19.234782]}, "properties": {"name": "Rashtriya Udyan Station", "description": "Formerly National Park Station"}}, {"type": "Feature", "geometry": {"type": "Point", "coordinates": [72.864112, 19.242847]}, "properties": {"name": "Ovaripada Station"}}, {"type": "Feature", "geometry": {"type": "Point", "coordinates": [72.867033, 19.251179]}, "properties": {"name": "Dahisar East Station"}}, {"type": "Feature", "geometry": {"type": "Point", "coordinates": [72.865684, 19.257294]}, "properties": {"name": "Upper Dahisar Station", "description": "Earlier known as Anand Nagar"}}, {"type": "Feature", "geometry": {"type": "Point", "coordinates": [72.850808, 19.25683]}, "properties": {"name": "Kandarpada Station", "description": "Earlier known as Rushi Sankul Station"}}, {"type": "Feature", "geometry": {"type": "Point", "coordinates": [72.845744, 19.249702]}, "properties": {"name": "Mandapeshwar Station", "description": "Earlier known as IC Colony Station"}}, {"type": "Feature", "geometry": {"type": "Point", "coordinates": [72.843494, 19.240492]}, "properties": {"name": "Eksar Station"}}, {"type": "Feature", "geometry": {"type": "Point", "coordinates": [72.840786, 19.231441]}, "properties": {"name": "Borivali (West) Station", "description": "Earlier known as Don Bosco Station"}}, {"type": "Feature", "geometry": {"type": "Point", "coordinates": [72.840839, 19.222909]}, "properties": {"name": "Pahadi Eksar Station", "description": "Earlier known as Shimpoli Station then Shimpawali Station"}}, {"type": "Feature", "geometry": {"type": "Point", "coordinates": [72.834645, 19.206056]}, "properties": {"name": "Dahanukarwadi Station", "description": "Earlier known as Kamraj Nagar Station"}}, {"type": "Feature", "geometry": {"type": "Point", "coordinates": [72.837381, 19.21412]}, "properties": {"name": "Kandivali West Station", "description": "Earlier known as Mahavir Nagar Station"}}, {"type": "Feature", "geometry": {"type": "Point", "coordinates": [72.833723, 19.19696]}, "properties": {"name": "Valnai Station", "description": "Earlier known as Charkop Station"}}, {"type": "Feature", "geometry": {"type": "Point", "coordinates": [72.835783, 19.185183]}, "properties": {"name": "Malad West Station", "description": "Earlier known as Malad Station"}}, {"type": "Feature", "geometry": {"type": "Point", "coordinates": [72.836303, 19.172971]}, "properties": {"name": "Lower Malad Station", "description": "Earlier known as Kasturi Park Station"}}, {"type": "Feature", "geometry": {"type": "Point", "coordinates": [72.834812, 19.162073]}, "properties": {"name": "Pahadi Goregaon Station", "description": "Earlier known as Bangur Nagar Station"}}, {"type": "Feature", "geometry": {"type": "Point", "coordinates": [72.835678, 19.153003]}, "properties": {"name": "Goregaon West Station", "description": "Earlier known as Goregaon Station"}}, {"type": "Feature", "geometry": {"type": "Point", "coordinates": [72.834069, 19.146055]}, "properties": {"name": "Oshiwara Station", "description": "Earlier known as Adarsh Nagar Station"}}, {"type": "Feature", "geometry": {"type": "Point", "coordinates": [72.831633, 19.140749]}, "properties": {"name": "Lower Oshiwara Station", "description": "Earlier known as Shastri Nagar Station"}}, {"type": "Feature", "geometry": {"type": "Point", "coordinates": [72.882491, 19.131343]}, "properties": {"name": "Aarey Colony Station"}}, {"type": "Feature", "geometry": {"type": "Point", "coordinates": [72.87564, 19.128705]}, "properties": {"name": "SEEPZ Station"}}, {"type": "Feature", "geometry": {"type": "Point", "coordinates": [72.873334, 19.117405]}, "properties": {"name": "MIDC Station"}}, {"type": "Feature", "geometry": {"type": "Point", "coordinates": [72.874331, 19.101945]}, "properties": {"name": "CSIA - T2 Station"}}, {"type": "Feature", "geometry": {"type": "Point", "coordinates": [72.864558, 19.102249]}, "properties": {"name": "Sahar Road Station"}}, {"type": "Feature", "geometry": {"type": "Point", "coordinates": [72.853434, 19.093931]}, "properties": {"name": "CSIA - T1 Station"}}, {"type": "Feature", "geometry": {"type": "Point", "coordinates": [72.84722, 19.079323]}, "properties": {"name": "Santa Cruz Station"}}, {"type": "Feature", "geometry": {"type": "Point", "coordinates": [72.849296, 19.070154]}, "properties": {"name": "Vidyanagari Station"}}, {"type": "Feature", "geometry": {"type": "Point", "coordinates": [72.854644, 19.060495]}, "properties": {"name": "Bandra Kurla Complex Station"}}, {"type": "Feature", "geometry": {"type": "Point", "coordinates": [72.849666, 19.046435]}, "properties": {"name": "Dharavi Station"}}, {"type": "Feature", "geometry": {"type": "Point", "coordinates": [72.842097, 19.038007]}, "properties": {"name": "Shitladevi Station"}}, {"type": "Feature", "geometry": {"type": "Point", "coordinates": [72.839355, 19.023716]}, "properties": {"name": "Dadar Station"}}, {"type": "Feature", "geometry": {"type": "Point", "coordinates": [72.830893, 19.015838]}, "properties": {"name": "Siddhivinayak Station"}}, {"type": "Feature", "geometry": {"type": "Point", "coordinates": [72.819673, 19.009247]}, "properties": {"name": "Worli Station"}}, {"type": "Feature", "geometry": {"type": "Point", "coordinates": [72.817683, 18.997891]}, "properties": {"name": "Acharya Atre Chowk Station"}}, {"type": "Feature", "geometry": {"type": "Point", "coordinates": [72.821575, 18.990585]}, "properties": {"name": "Science Centre Station"}}, {"type": "Feature", "geometry": {"type": "Point", "coordinates": [72.825891, 18.980041]}, "properties": {"name": "Mahalaxmi Station"}}, {"type": "Feature", "geometry": {"type": "Point", "coordinates": [72.821159, 18.970047]}, "properties": {"name": "Mumbai Central Station"}}, {"type": "Feature", "geometry": {"type": "Point", "coordinates": [72.818016, 18.962986]}, "properties": {"name": "Grant Road Station"}}, {"type": "Feature", "geometry": {"type": "Point", "coordinates": [72.822184, 18.952321]}, "properties": {"name": "Girgaon Station"}}, {"type": "Feature", "geometry": {"type": "Point", "coordinates": [72.827039, 18.946618]}, "properties": {"name": "Kalbadevi Station"}}, {"type": "Feature", "geometry": {"type": "Point", "coordinates": [72.832038, 18.940742]}, "properties": {"name": "CST Station"}}, {"type": "Feature", "geometry": {"type": "Point", "coordinates": [72.832434, 18.934037]}, "properties": {"name": "Hutatma Chowk Station"}}, {"type": "Feature", "geometry": {"type": "Point", "coordinates": [72.826447, 18.930908]}, "properties": {"name": "Churchgate Station"}}, {"type": "Feature", "geometry": {"type": "Point", "coordinates": [72.825778, 18.924383]}, "properties": {"name": "Vidhan Bhavan Station"}}, {"type": "Feature", "geometry": {"type": "Point", "coordinates": [72.820575, 18.913427]}, "properties": {"name": "Cuffe Parade Station"}}, {"type": "Feature", "geometry": {"type": "Point", "coordinates": [72.82989, 19.119717]}, "properties": {"name": "ESIC Nagar Station"}}, {"type": "Feature", "geometry": {"type": "Point", "coordinates": [72.824442, 19.199353]}, "properties": {"name": "Charkop Depot (Line-2/7)"}}, {"type": "Feature", "geometry": {"type": "Point", "coordinates": [72.884181, 19.132478]}, "properties": {"name": "Aarey Depot (Line-3)", "description": "Construction yet to begin"}}, {"type": "Feature", "geometry": {"type": "Point", "coordinates": [72.881144, 19.132184]}, "properties": {"name": "Aarey Colony Ramp", "description": "Located at Sariput Nagar"}}, {"type": "Feature", "geometry": {"type": "Point", "coordinates": [72.837055, 19.109615]}, "properties": {"name": "Prem Nagar Station"}}, {"type": "Feature", "geometry": {"type": "Point", "coordinates": [72.839485, 19.096421]}, "properties": {"name": "Nanavati Hospital Station"}}, {"type": "Feature", "geometry": {"type": "Point", "coordinates": [72.837886, 19.081982]}, "properties": {"name": "Khira Nagar Station"}}, {"type": "Feature", "geometry": {"type": "Point", "coordinates": [72.837491, 19.073144]}, "properties": {"name": "Saraswat Nagar Station"}}, {"type": "Feature", "geometry": {"type": "Point", "coordinates": [72.837258, 19.063278]}, "properties": {"name": "National College Station"}}, {"type": "Feature", "geometry": {"type": "Point", "coordinates": [72.837989, 19.053258]}, "properties": {"name": "Bandra Station"}}, {"type": "Feature", "geometry": {"type": "Point", "coordinates": [72.846252, 19.052706]}, "properties": {"name": "MMRDA Station"}}, {"type": "Feature", "geometry": {"type": "Point", "coordinates": [72.854299, 19.058801]}, "properties": {"name": "Bandra Kurla Complex (ITO) Station"}}, {"type": "Feature", "geometry": {"type": "Point", "coordinates": [72.863678, 19.066203]}, "properties": {"name": "IL&FS - BKC Station"}}, {"type": "Feature", "geometry": {"type": "Point", "coordinates": [72.868939, 19.069435]}, "properties": {"name": "MTNL Station"}}, {"type": "Feature", "geometry": {"type": "Point", "coordinates": [72.881262, 19.073839]}, "properties": {"name": "S G Barve Marg Station"}}, {"type": "Feature", "geometry": {"type": "Point", "coordinates": [72.885297, 19.063462]}, "properties": {"name": "Kurla East Station"}}, {"type": "Feature", "geometry": {"type": "Point", "coordinates": [72.893467, 19.054094]}, "properties": {"name": "Chembur Station"}}, {"type": "Feature", "geometry": {"type": "Point", "coordinates": [72.901975, 19.051659]}, "properties": {"name": "Diamond Nagar Station"}}, {"type": "Feature", "geometry": {"type": "Point", "coordinates": [72.907594, 19.047411]}, "properties": {"name": "Shivaji Chowk Station"}}, {"type": "Feature", "geometry": {"type": "Point", "coordinates": [72.918269, 19.044629]}, "properties": {"name": "BSNL Station"}}, {"type": "Feature", "geometry": {"type": "Point", "coordinates": [72.93132, 19.049084]}, "properties": {"name": "Mankhurd Station"}}, {"type": "Feature", "geometry": {"type": "Point", "coordinates": [72.939874, 19.048418]}, "properties": {"name": "Mandale Station"}}, {"type": "Feature", "geometry": {"type": "Point", "coordinates": [72.94377, 19.046732]}, "properties": {"name": "Mandale Depot"}}, {"type": "Feature", "geometry": {"type": "Point", "coordinates": [72.854225, 19.104642]}, "properties": {"name": "Airport Colony Station"}}, {"type": "Feature", "geometry": {"type": "Point", "coordinates": [72.858704, 19.169369]}, "properties": {"name": "Aarey Station", "description": "Formerly Pathanwadi Station"}}]}