{"type": "FeatureCollection", "name": "Phase 1 - Stations", "features": [{"type": "Feature", "geometry": {"type": "Point", "coordinates": [73.803518, 18.629036]}, "properties": {"name": "Pimpri Chinchwad Municipal Corporation (PCMC) Station"}}, {"type": "Feature", "geometry": {"type": "Point", "coordinates": [73.81576, 18.614525]}, "properties": {"name": "Sant Tukaram Nagar\u00c2\u00a0Station"}}, {"type": "Feature", "geometry": {"type": "Point", "coordinates": [73.820057, 18.609411]}, "properties": {"name": "Bhosari (Nashik Phata)\u00c2\u00a0Station"}}, {"type": "Feature", "geometry": {"type": "Point", "coordinates": [73.827283, 18.599578]}, "properties": {"name": "Kasarwadi\u00c2\u00a0Station"}}, {"type": "Feature", "geometry": {"type": "Point", "coordinates": [73.831038, 18.591306]}, "properties": {"name": "Phugewadi\u00c2\u00a0Station"}}, {"type": "Feature", "geometry": {"type": "Point", "coordinates": [73.837904, 18.570001]}, "properties": {"name": "Bopodi\u00c2\u00a0Station"}}, {"type": "Feature", "geometry": {"type": "Point", "coordinates": [73.833784, 18.58375]}, "properties": {"name": "Dapodi\u00c2\u00a0Station"}}, {"type": "Feature", "geometry": {"type": "Point", "coordinates": [73.842523, 18.561391]}, "properties": {"name": "Khadki\u00c2\u00a0Station"}}, {"type": "Feature", "geometry": {"type": "Point", "coordinates": [73.846139, 18.54944]}, "properties": {"name": "Range Hills\u00c2\u00a0Station"}}, {"type": "Feature", "geometry": {"type": "Point", "coordinates": [73.849706, 18.53168]}, "properties": {"name": "Shivaji Nagar\u00c2\u00a0Station"}}, {"type": "Feature", "geometry": {"type": "Point", "coordinates": [73.857601, 18.526479]}, "properties": {"name": "Civil Court\u00c2\u00a0Station"}}, {"type": "Feature", "geometry": {"type": "Point", "coordinates": [73.859555, 18.520897]}, "properties": {"name": "Budhwar Peth\u00c2\u00a0Station"}}, {"type": "Feature", "geometry": {"type": "Point", "coordinates": [73.856897, 18.512776]}, "properties": {"name": "Mandai\u00c2\u00a0Station"}}, {"type": "Feature", "geometry": {"type": "Point", "coordinates": [73.857501, 18.499745]}, "properties": {"name": "Swargate\u00c2\u00a0Station"}}, {"type": "Feature", "geometry": {"type": "Point", "coordinates": [73.805401, 18.507221]}, "properties": {"name": "Vanaz\u00c2\u00a0Station"}}, {"type": "Feature", "geometry": {"type": "Point", "coordinates": [73.814078, 18.509623]}, "properties": {"name": "Anand Nagar\u00c2\u00a0Station"}}, {"type": "Feature", "geometry": {"type": "Point", "coordinates": [73.822246, 18.508737]}, "properties": {"name": "Ideal Colony\u00c2\u00a0Station"}}, {"type": "Feature", "geometry": {"type": "Point", "coordinates": [73.828801, 18.507429]}, "properties": {"name": "Nal Stop\u00c2\u00a0Station"}}, {"type": "Feature", "geometry": {"type": "Point", "coordinates": [73.838162, 18.512066]}, "properties": {"name": "Garware College\u00c2\u00a0Station"}}, {"type": "Feature", "geometry": {"type": "Point", "coordinates": [73.844442, 18.516407]}, "properties": {"name": "Deccan Gymkhana\u00c2\u00a0Station"}}, {"type": "Feature", "geometry": {"type": "Point", "coordinates": [73.847501, 18.520187]}, "properties": {"name": "Sambhaji Park\u00c2\u00a0Station"}}, {"type": "Feature", "geometry": {"type": "Point", "coordinates": [73.853445, 18.522789]}, "properties": {"name": "PMC\u00c2\u00a0Station"}}, {"type": "Feature", "geometry": {"type": "Point", "coordinates": [73.865109, 18.5301]}, "properties": {"name": "Mangalwar Peth\u00c2\u00a0Station"}}, {"type": "Feature", "geometry": {"type": "Point", "coordinates": [73.872481, 18.529752]}, "properties": {"name": "Pune Railway Station"}}, {"type": "Feature", "geometry": {"type": "Point", "coordinates": [73.877714, 18.532728]}, "properties": {"name": "Ruby Clinic\u00c2\u00a0Station"}}, {"type": "Feature", "geometry": {"type": "Point", "coordinates": [73.883432, 18.540624]}, "properties": {"name": "Bund Garden\u00c2\u00a0Station"}}, {"type": "Feature", "geometry": {"type": "Point", "coordinates": [73.886576, 18.545367]}, "properties": {"name": "Yerawada\u00c2\u00a0Station"}}, {"type": "Feature", "geometry": {"type": "Point", "coordinates": [73.905641, 18.5444]}, "properties": {"name": "Kalyani Nagar\u00c2\u00a0Station"}}, {"type": "Feature", "geometry": {"type": "Point", "coordinates": [73.908645, 18.557155]}, "properties": {"name": "Ramwadi\u00c2\u00a0Station"}}]}